City,Country,Temperature,Maximum Temperature,Latitude,Longitude,Humidity,Wind Speed,Cloudiness,Date
Ushuaia,AR,46.4,46.4,-54.81,-68.31,97,10.29,40,1572577762
Saskylakh,RU,-0.26,-0.26,71.97,114.09,97,1.34,100,1572577762
Thinadhoo,MV,81.23,81.23,0.53,72.93,80,11.72,98,1572577763
Ketchikan,US,47.19,48.2,55.34,-131.65,87,1.52,90,1572577763
Arraial do Cabo,BR,74.89,74.89,-22.97,-42.02,90,6.55,23,1572577763
Punta Arenas,CL,42.42,42.8,-53.16,-70.91,70,14.99,40,1572577763
Rikitea,PF,71.1,71.1,-23.12,-134.97,70,13.02,78,1572577763
Lazaro Cardenas,MX,52.48,53.01,28.39,-105.62,25,5.41,5,1572577763
Busselton,AU,57.94,59,-33.64,115.35,76,10,79,1572577764
Vostok,RU,29.3,29.3,46.45,135.83,95,11.9,100,1572577764
Jamestown,AU,88.39,88.39,-33.21,138.6,24,21.36,100,1572577764
Bethel,US,28.99,30.2,60.79,-161.76,86,20.8,20,1572577764
Puerto Ayora,EC,69.01,69.01,-0.74,-90.35,93,4,34,1572577764
Joshimath,IN,51.26,51.26,30.57,79.57,26,1.43,0,1572577765
Kawalu,ID,80.38,80.38,-7.38,108.21,62,6.11,99,1572577765
Vestmannaeyjar,IS,41.72,41.72,63.44,-20.27,79,8.77,35,1572577765
Kyabram,AU,93.49,95,-36.31,145.05,11,19.46,39,1572577765
Flinders,AU,77.34,87.01,-34.58,150.85,47,14.99,36,1572577765
Rodino,RU,49.41,49.41,52.5,80.2,70,16.73,81,1572577765
Constitucion,MX,57.2,57.2,23.99,-104.67,54,8.05,5,1572577766
Cabra,ES,63.18,68,37.47,-4.43,82,4.7,99,1572577766
Lasa,CY,60.19,60.8,34.92,32.53,82,6.93,75,1572577766
Smithers,CA,35.6,35.6,54.78,-127.17,94,3.36,75,1572577766
At-Bashi,KG,29.75,29.75,41.17,75.81,58,5.35,99,1572577766
Tasiilaq,GL,30.2,30.2,65.61,-37.64,63,12.75,100,1572577767
Sept-Iles,CA,39.06,39.2,50.2,-66.38,93,6.93,90,1572577767
Hilo,US,73.29,82.4,19.71,-155.08,69,3.36,75,1572577767
Port Alfred,ZA,57.99,57.99,-33.59,26.89,92,1.01,11,1572577767
Chuy,UY,59.02,59.02,-33.69,-53.46,88,9.73,0,1572577767
Barrow,AR,52.83,52.83,-38.31,-60.23,58,11.74,100,1572577767
Esperance,AU,62.6,62.6,-33.86,121.89,39,31.09,75,1572577768
Khatanga,RU,-6.11,-6.11,71.98,102.47,98,1.16,51,1572577768
San Patricio,PY,72.46,72.46,-26.98,-56.83,91,6.51,100,1572577768
Coihaique,CL,44.6,44.6,-45.58,-72.07,81,4.7,64,1572577768
Saldanha,PT,58.57,58.57,41.42,-6.55,98,7.36,100,1572577768
Hami,CN,56.14,56.14,42.84,93.51,19,1.39,0,1572577768
Airai,TL,86.09,86.09,-8.93,125.41,36,7.47,88,1572577769
Port Blair,IN,83.43,83.43,11.67,92.75,72,5.68,76,1572577769
Doctor Arroyo,MX,50.2,50.2,23.67,-100.18,73,5.28,24,1572577769
Kumluca,TR,60.19,60.19,36.37,30.29,85,3.85,90,1572577769
Cape Town,ZA,56.26,59,-33.93,18.42,76,2.24,95,1572577543
Avarua,CK,78.8,78.8,-21.21,-159.78,78,8.05,16,1572577769
Tuatapere,NZ,54,54,-46.13,167.69,76,20,67,1572577770
Bafq,IR,49.5,49.5,31.6,55.4,57,1.79,0,1572577770
Diamantino,BR,72.66,72.66,-14.4,-56.44,91,9.15,100,1572577770
Poum,MK,39.97,39.97,41.28,20.71,83,4.47,0,1572577770
Port Macquarie,AU,78.46,80.6,-31.43,152.91,44,19.46,0,1572577770
Rio Gallegos,AR,44.6,44.6,-51.62,-69.22,64,17.22,19,1572577770
Vaini,IN,69.8,69.8,15.34,74.49,100,6.93,75,1572577771
Qaanaaq,GL,12.06,12.06,77.48,-69.36,67,7.05,100,1572577771
Panna,IN,75.97,75.97,24.72,80.19,52,3.78,0,1572577771
Gazanjyk,TM,53.29,53.29,39.24,55.52,55,7.96,0,1572577771
Torbay,CA,47.44,48.99,47.66,-52.73,93,23.04,90,1572577771
Mataura,NZ,54,54,-46.19,168.86,76,20,95,1572577771
Sitka,US,36.46,39,37.17,-99.65,31,11.99,0,1572577772
Nikolskoye,RU,35.49,37,59.7,30.79,95,6.71,90,1572577772
Cherskiy,RU,7.77,7.77,68.75,161.3,89,2.64,79,1572577772
Mahebourg,MU,72.82,73.99,-20.41,57.7,83,3.36,20,1572577772
Souillac,FR,56.3,57.2,45.6,-0.6,93,8.05,90,1572577772
Ballina,IE,51.26,52,54.11,-9.15,95,5.01,100,1572577772
Escanaba,US,30.43,33.01,45.75,-87.06,63,14.99,90,1572577773
Dwarka,IN,72.01,81,28.58,77.04,83,1.28,90,1572577773
Makat,KZ,30.69,30.69,47.65,53.35,59,7.36,0,1572577773
Butaritari,KI,84.43,84.43,3.07,172.79,75,14.43,100,1572577773
Cayenne,GF,77,77,4.94,-52.33,88,5.93,20,1572577773
Griffith,AU,93.52,95,-34.29,146.06,19,17.22,0,1572577774
Semnan,IR,55.4,55.4,35.58,53.39,66,2.24,9,1572577774
Castro,CL,50,50,-42.48,-73.76,100,3.36,90,1572577774
San Policarpo,PH,84.97,84.97,12.18,125.51,68,4.23,100,1572577774
Hauterive,CA,41,41,49.18,-68.27,93,6.93,90,1572577774
Paris,FR,50.23,52,48.86,2.35,93,1.12,90,1572577047
Thompson,CA,24.8,24.8,55.74,-97.86,92,3.36,90,1572577737
Golden,US,28.26,34,39.76,-105.22,79,1.9,1,1572577775
Matara,BI,57.31,57.31,-3.48,29.48,78,5.35,76,1572577775
Valdivia,CL,49.41,49.41,-39.81,-73.25,99,5.06,100,1572577775
Natal,BR,76.08,77,-5.81,-35.21,78,6.93,20,1572577674
Darnetal,FR,50.05,52,49.45,1.15,100,5.82,100,1572577775
Georgetown,GY,77,77,6.8,-58.16,94,2.24,20,1572577776
Vao,EE,30.74,30.74,59.1,26.19,92,6.51,0,1572577776
Nizhniy Bestyakh,RU,15.8,15.8,61.96,129.91,78,6.71,20,1572577776
Ust-Nera,RU,10.44,10.44,64.57,143.24,89,2.64,100,1572577776
Micheweni,TZ,79.75,79.75,-4.97,39.83,77,15.55,3,1572577776
Mar del Plata,AR,56.32,56.32,-46.43,-67.52,33,21.61,42,1572577776
Gillette,US,31.87,34,44.29,-105.5,94,6.93,90,1572577777
Okhotsk,RU,33.26,33.26,59.36,143.24,98,12.28,100,1572577777
Yerbogachen,RU,9.82,9.82,61.28,108.01,84,7.58,0,1572577777
Jacareacanga,BR,73.18,73.18,-6.22,-57.76,95,2.21,100,1572577777
Talnakh,RU,-5.81,-5.81,69.49,88.39,76,13.42,75,1572577777
Egvekinot,RU,8.01,8.01,66.32,-179.17,73,6.55,37,1572577777
Majene,ID,80.87,80.87,-3.54,118.97,68,3.22,100,1572577778
Fayetteville,US,29.66,32,36.06,-94.16,86,2.75,1,1572577755
Hermanus,ZA,57.33,59,-34.42,19.24,83,13,100,1572577778
Narsaq,GL,41,41,60.91,-46.05,44,12.75,100,1572577778
Hasaki,JP,71.65,77,35.73,140.83,60,3.36,0,1572577778
Palmerston,AU,86.34,89.01,-12.49,130.99,66,8.05,75,1572577778
Hobart,AU,87.13,88,-42.88,147.33,23,18.34,100,1572577617
Upernavik,GL,14.4,14.4,72.79,-56.15,62,4.54,65,1572577779
Petukhovo,RU,30.61,30.61,55.06,67.89,75,19.26,81,1572577779
Carnot,CF,67.69,67.69,4.94,15.87,96,1.79,100,1572577779
Laguna,BZ,75.2,75.2,16.17,-88.94,100,1.83,90,1572577779
San Quintin,PH,88.25,88.25,17.54,120.52,60,4.18,94,1572577780
Sambava,MG,68.31,68.31,-14.27,50.17,87,2.75,66,1572577780
Khao Wong,TH,77,77,16.69,104.09,65,2.24,75,1572577780
Lavrentiya,RU,25.05,25.05,65.58,-170.99,74,7.4,0,1572577780
Saint-Philippe,CA,49.6,60.01,45.36,-73.48,93,23.04,90,1572577780
Yellowknife,CA,28.81,30,62.45,-114.38,100,5.82,75,1572577780
Port Augusta,AU,88.32,89.01,-32.49,137.76,31,23.04,100,1572577781
Bluff,AU,85.86,85.86,-23.58,149.07,30,13.76,60,1572577781
General Roca,AR,68,68,-39.03,-67.58,19,5.82,100,1572577781
Muros,ES,64.62,68,42.77,-9.06,100,11.41,90,1572577781
Shache,CN,56.48,57,38.42,77.24,95,4,75,1572577781
Dikson,RU,6.78,6.78,73.51,80.55,94,7.67,95,1572577781
Lindome,SE,45.21,48.99,57.58,12.09,75,9.17,90,1572577782
Taoudenni,ML,70.99,70.99,22.68,-3.98,30,8.55,0,1572577782
Ugoofaaru,MV,83.26,83.26,5.67,73,70,5.1,32,1572577782
New Norfolk,AU,87.3,88,-42.78,147.06,23,18.34,100,1572577782
Tuktoyaktuk,CA,26.6,26.6,69.44,-133.03,79,20.8,90,1572577782
Havoysund,NO,32,32,71,24.66,65,19.46,75,1572577782
Beringovskiy,RU,26.71,26.71,63.05,179.32,73,9.35,0,1572577783
Nacogdoches,US,35.98,41,31.6,-94.66,100,4.29,1,1572577783
Maragogi,BR,78.49,78.49,-9.01,-35.22,78,14.92,79,1572577783
Oil City,US,37.89,39,41.43,-79.71,86,29.97,90,1572577783
Raudeberg,NO,42.8,44.6,61.99,5.14,81,16.11,75,1572577783
Hovd,NO,39.83,44.01,63.83,10.7,93,11.41,75,1572577784
Kaitangata,NZ,60.01,60.01,-46.28,169.85,50,11.01,79,1572577784
Matamoros,US,54.18,55.4,25.87,-97.51,37,8.05,90,1572577784
Atuona,PF,80.4,80.4,-9.8,-139.03,69,10.45,45,1572577784
Klaksvik,FO,35.6,35.6,62.23,-6.59,93,4.41,4,1572577784
Verkhnevilyuysk,RU,7.9,7.9,63.45,120.31,79,6.93,31,1572577784
Yulara,AU,100.4,100.4,-25.24,130.99,5,25.28,0,1572577785
Ribeira Grande,PT,66,66,38.52,-28.7,92,22.03,67,1572577785
Sao Jose da Coroa Grande,BR,78.49,78.49,-8.9,-35.15,78,14.92,79,1572577785
Arbuzynka,UA,30.56,30.56,47.91,31.32,54,3.02,56,1572577785
Aksu,KZ,50,50,52.04,76.93,81,17.9,91,1572577785
Lata,IN,35.83,35.83,30.78,78.62,29,1.95,0,1572577785
Saint George,GR,57.2,57.2,39.45,22.34,93,4.7,90,1572577632
Broome,GB,47.39,51.01,52.47,1.45,93,2.24,100,1572577786
Ios,GR,64.33,64.99,36.73,25.28,88,3.36,21,1572577786
La Palma,CO,69.08,69.08,5.36,-74.39,98,3.76,80,1572577786
Ilhabela,BR,75.27,75.27,-23.78,-45.36,89,3.06,2,1572577786
Domat,CH,44.01,46.99,46.83,9.45,99,6.17,27,1572577786
Celestun,MX,82.54,82.54,20.87,-90.4,77,19.48,9,1572577787
Bongandanga,CD,68.23,68.23,1.51,21.07,97,2.13,90,1572577787
Peniche,PT,65.93,68,39.36,-9.38,94,8.05,75,1572577787
Seminole,US,36.12,39.2,32.72,-102.64,34,5.82,1,1572577787
Alice Springs,AU,100.4,100.4,-23.7,133.88,5,18.34,0,1572577787
Geraldton,CA,24.8,24.8,49.72,-86.95,58,4.7,90,1572577787
Nanortalik,GL,31.62,31.62,60.14,-45.24,97,7.56,100,1572577788
Mwingi,KE,64.33,64.33,-0.93,38.07,92,2.37,1,1572577788
Zhengjiatun,CN,45.12,45.12,43.51,123.51,23,4.43,0,1572577788
Lashio,MM,78.03,78.03,22.93,97.75,61,1.41,71,1572577788
Albany,US,69.19,72,42.65,-73.75,78,20.8,90,1572577788
Victoria,BN,85.05,86,5.28,115.24,79,1.12,75,1572577788
Port Elizabeth,US,72.27,75.99,39.31,-74.98,78,26.13,100,1572577789
Whitianga,NZ,64.99,64.99,-36.83,175.7,60,11.99,39,1572577789
Taltal,CL,52.5,52.5,-25.41,-70.49,81,2.01,67,1572577587
Guerrero Negro,MX,68.36,68.36,27.97,-114.04,41,6.64,0,1572577789
Putina,PE,44.22,44.22,-14.91,-69.87,67,2.89,0,1572577789
Rafsanjan,IR,53.98,53.98,30.4,55.99,42,2.13,0,1572577790
Barreiro,PT,66.15,68,38.66,-9.08,94,8.05,75,1572577790
Viedma,AR,68.09,68.09,-40.81,-62.99,40,22.41,96,1572577790
Salalah,OM,80.6,80.6,17.01,54.1,78,3.36,100,1572577790
Padang,ID,78.08,78.08,-0.92,100.36,66,3.62,68,1572577790
Susehri,TR,40.59,40.59,40.16,38.09,54,0.81,100,1572577790
Aklavik,CA,24.8,24.8,68.22,-135.01,68,3.36,75,1572577791
Ponta do Sol,BR,65.95,65.95,-20.63,-46,90,2.66,92,1572577791
Alyangula,AU,86,86,-13.85,136.42,66,10.29,100,1572577791
Pevek,RU,6.8,6.8,69.7,170.27,95,5.39,90,1572577791
Kulhudhuffushi,MV,82.78,82.78,6.62,73.07,72,5.23,7,1572577791
Kapaa,US,79.3,82.4,22.08,-159.32,78,5.82,75,1572577627
Kahului,US,78.82,84.2,20.89,-156.47,62,9.17,40,1572577792
Lebu,ET,53.6,53.6,8.96,38.73,66,2.24,40,1572577792
Mackenzie,CA,30.2,30.2,55.34,-123.09,86,4.7,90,1572577792
Los Llanos de Aridane,ES,73.4,73.4,28.66,-17.92,78,13.87,75,1572577792
Bredasdorp,ZA,59,59,-34.53,20.04,83,13,56,1572577792
Ancud,CL,50,50,-41.87,-73.83,100,3.36,90,1572577792
Masallatah,LY,62.62,62.62,32.62,14,82,6.76,1,1572577793
Maniitsoq,GL,37.31,37.31,65.42,-52.9,78,9.4,100,1572577793
Mao,DO,76.48,80.01,19.55,-71.08,100,6.8,20,1572577793
Ornskoldsvik,SE,26.46,28.4,63.29,18.72,79,10.29,11,1572577793
Tomatlan,MX,72.34,72.34,19.93,-105.25,96,1.21,64,1572577793
Nuuk,GL,36.34,37.4,64.17,-51.74,83,5.82,75,1572577793
Banjar,ID,86.02,86.02,-7.37,108.54,54,7.58,99,1572577794
Meulaboh,ID,79.72,79.72,4.14,96.13,78,7,80,1572577794
Chokurdakh,RU,-5.18,-5.18,70.62,147.9,97,2.8,12,1572577794
Rawson,AR,57.09,57.09,-43.3,-65.11,63,12.97,100,1572577794
Russell,US,32.58,35.6,38.9,-98.86,50,8.05,1,1572577611
Dunedin,NZ,57.99,57.99,-45.87,170.5,58,21,100,1572577794
Batticaloa,LK,79.84,79.84,7.71,81.69,76,3.91,33,1572577795
Vila Franca do Campo,PT,71.6,71.6,37.72,-25.43,94,20.8,75,1572577795
Brae,GB,47.41,48.2,60.4,-1.35,87,9.17,100,1572577795
Katherine,AU,95,95,-14.47,132.26,39,11.41,48,1572577795
Masakin,YE,64.99,64.99,15.32,47.68,29,3.58,11,1572577795
Leningradskiy,RU,16.45,16.45,69.38,178.42,88,2.82,88,1572577796
Ushtobe,KZ,57.85,57.85,45.25,77.98,62,3.2,100,1572577796
Cradock,ZA,40.37,40.37,-32.16,25.62,95,0.18,0,1572577796
Ulladulla,AU,81.86,88,-35.36,150.48,47,14.99,0,1572577796
Montepuez,MZ,72.39,72.39,-13.13,39,82,7.52,62,1572577796
Ixtapa,MX,82.18,82.4,20.71,-105.21,78,1.61,90,1572577796
Husavik,CA,30.99,30.99,50.56,-96.99,96,5.99,100,1572577797
Harkany,HU,35.46,37.4,45.85,18.24,93,4.7,0,1572577797
Cockburn Town,TC,78.8,78.8,21.46,-71.14,83,6.93,40,1572577797
Sidhi,IN,74.32,74.32,24.41,81.88,55,4.14,0,1572577797
Cadillac,US,32.68,35.6,44.25,-85.4,95,14.99,90,1572577797
Yatsushiro,JP,64.4,64.4,32.52,130.76,63,4.7,75,1572577797
Mangrol,IN,68,68,25.33,76.51,88,3.94,0,1572577798
Honiara,SB,82.4,82.4,-9.43,159.96,83,17.22,75,1572577798
Nemuro,JP,55.4,55.4,43.32,145.57,62,5.82,75,1572577798
Bubaque,GW,82.67,82.67,11.28,-15.83,71,7.31,0,1572577798
Vila,IT,50.92,54,45.18,8.4,93,3.36,75,1572577798
Saint-Louis,SN,78.8,78.8,16.03,-16.5,36,6.93,0,1572577798
Pyay,MM,83.12,83.12,18.82,95.22,75,1.99,62,1572577799
Urusha,RU,20.39,20.39,54.05,122.9,71,2.24,99,1572577799
Hamilton,CA,44.1,48.2,43.26,-79.87,93,26.4,90,1572577799
Hithadhoo,MV,81.39,81.39,-0.6,73.08,78,12.53,91,1572577799
Santa Cruz,BR,68.59,68.59,-6.22,-36.02,91,6.76,5,1572577799
Merauke,ID,89.76,89.76,-8.49,140.4,57,7.67,50,1572577800
Tambun,ID,91.63,93.99,-6.26,107.07,52,6.93,20,1572577800
Antalaha,MG,77.99,77.99,-14.9,50.28,73,19.48,81,1572577800
Kingston,JM,77.72,80.6,17.97,-76.79,83,6.93,20,1572577643
Buchanan,LR,74.3,74.3,5.88,-10.05,94,2.33,20,1572577800
Winslow,GB,48.07,51.01,51.94,-0.88,100,6.93,90,1572577801
Chhindwara,IN,72.81,72.81,22.06,78.94,68,3.13,100,1572577801
Jishou,CN,65.77,65.77,28.26,109.7,52,3.96,89,1572577801
Isangel,VU,78.8,78.8,-19.55,169.27,57,9.17,75,1572577801
Carsamba,TR,51.8,51.8,41.2,36.72,87,5.37,90,1572577801
Perth,AU,63.09,64.4,-31.95,115.86,59,23.04,75,1572577693
Sumbe,AO,73.96,73.96,-11.2,13.84,88,1.1,0,1572577802
Provideniya,RU,28.4,28.4,64.42,-173.23,79,4.14,0,1572577802
Hambantota,LK,82.4,82.4,6.12,81.12,94,3.36,20,1572577802
Magan,OM,78.8,78.8,24.42,56.58,78,1.12,0,1572577802
Skagen,SE,35.33,37.99,58.6,13.44,86,4.7,100,1572577802
Tiksi,RU,-1.18,-1.18,71.64,128.87,93,3.15,100,1572577802
Clyde River,CA,26.6,26.6,70.47,-68.59,92,8.05,90,1572577803
Yuxia,CN,54.88,59,34.06,108.63,100,2.24,90,1572577803
Sorong,ID,80.51,80.51,-0.86,131.25,92,4.14,100,1572577803
Kruisfontein,ZA,49.15,49.15,-34,24.73,88,5.7,0,1572577804
Colorado Springs,US,29.79,36,38.83,-104.83,48,5.82,1,1572577606
Severo-Kurilsk,RU,39.99,39.99,50.68,156.12,93,14.41,100,1572577804
Mangan,IN,59.47,59.47,27.5,88.54,46,3.31,0,1572577804
Fortuna,US,45.73,48.99,40.6,-124.16,61,3.36,1,1572577804
Nelson Bay,AU,78.71,84.2,-32.72,152.14,39,14.99,3,1572577805
Keene,US,67.57,71.01,42.93,-72.28,88,19.46,90,1572577750
Oltina,RO,44.01,44.01,44.24,27.57,64,1.01,67,1572577805
Inuvik,CA,24.8,24.8,68.36,-133.71,68,3.36,75,1572577805
Kieta,PG,84.2,84.2,-6.22,155.63,72,6.64,100,1572577805
Aquin,HT,77.81,77.81,18.28,-73.39,80,6.08,16,1572577806
Aborlan,PH,86,86,9.44,118.55,66,9.17,40,1572577806
Half Moon Bay,US,56.19,64.4,37.46,-122.43,38,9.17,1,1572577806
Marquette,US,29.25,30,46.54,-87.4,68,12.75,90,1572577806
Khanpur,PK,78.84,78.84,28.65,70.66,27,4.12,99,1572577686
Aitape,PG,83.73,83.73,-3.15,142.36,71,9.1,52,1572577806
Ucluelet,CA,42.01,42.01,48.94,-125.55,88,2.42,34,1572577807
Havre-Saint-Pierre,CA,37.4,37.4,50.23,-63.6,100,10.29,90,1572577807
Tura,RU,1.69,1.69,64.27,100.22,92,5.88,32,1572577807
Komsomolskiy,RU,10.38,10.38,67.55,63.78,96,4.83,100,1572577807
Zhigansk,RU,5.68,5.68,66.77,123.37,93,10.38,100,1572577807
Mogadishu,SO,81.84,81.84,2.04,45.34,80,10.47,32,1572577807
Paamiut,GL,34.86,34.86,61.99,-49.67,84,7.11,100,1572577808
Bambous Virieux,MU,72.77,73.99,-20.34,57.76,83,3.36,20,1572577808
East London,ZA,63.14,63.14,-33.02,27.91,81,16.64,94,1572577808
Bukama,CD,70.66,70.66,-9.2,25.85,88,1.7,0,1572577808
Saint-Denis,FR,50.23,52,48.94,2.36,93,1.12,90,1572577808
Westport,US,68.43,71.01,41.14,-73.36,88,31.09,90,1572577809
Port Hardy,CA,46.4,46.4,50.7,-127.42,93,1.25,90,1572577809
Inta,RU,15.06,15.06,66.04,60.13,95,4.07,100,1572577809
Ust-Tsilma,RU,16.14,16.14,65.44,52.15,97,3.24,95,1572577809
Praia da Vitoria,PT,71.6,71.6,38.73,-27.07,88,24.47,40,1572577809
Ende,ID,80.44,80.44,-8.84,121.65,74,5.08,73,1572577809
Karpogory,RU,21.34,21.34,64,44.44,78,7.85,100,1572577810
Nishihara,JP,70.84,78.01,35.74,139.53,77,5.82,20,1572577810
Two Hills,CA,32.22,32.22,53.71,-111.75,86,13.71,100,1572577678
Bella Vista,AR,69.8,69.8,-27.03,-65.31,64,5.82,75,1572577810
Jalu,LY,64.6,64.6,29.03,21.55,45,6.73,0,1572577810
Oranjemund,ZA,59.86,59.86,-28.55,16.43,65,5.26,96,1572577810
Portland,US,63,68,43.66,-70.25,88,17.22,90,1572577208
Conde,BR,78.58,78.58,-11.81,-37.61,79,15.23,100,1572577811
Mandalgovi,MN,44.56,44.56,45.76,106.27,35,8.61,55,1572577811
Teya,MX,82.27,84,21.05,-89.07,83,11.41,20,1572577811
Imbituba,BR,71.6,71.6,-28.24,-48.67,94,5.82,75,1572577613
Northampton,AU,68,68,-28.35,114.63,52,18.34,90,1572577811
Sao Filipe,CV,81.41,81.41,14.9,-24.5,53,12.62,0,1572577812
Luderitz,NA,62.6,62.6,-26.65,15.16,55,5.82,100,1572577812
Puerto Escondido,MX,78.8,78.8,15.86,-97.07,74,3.36,40,1572577812
Koslan,RU,18.05,18.05,63.46,48.9,95,1.88,38,1572577812
Carauari,BR,72.86,72.86,-4.88,-66.9,97,0.67,5,1572577812
Campo Maior,BR,77.86,77.86,-4.83,-42.16,73,8.41,100,1572577813
Jasper,US,36.28,37.99,33.83,-87.28,93,5.39,1,1572577813
Cabo San Lucas,MX,74.32,79,22.89,-109.91,69,6.93,40,1572577629
West Wendover,US,28.4,28.4,40.74,-114.07,50,3.36,1,1572577813
Longyearbyen,NO,19.4,19.4,78.22,15.63,67,23.04,40,1572577813
Tiznit,MA,63.81,63.81,29.7,-9.73,39,1.5,0,1572577813
Bergama,TR,58.06,59,39.12,27.18,82,13.87,75,1572577814
Rocha,UY,52.52,52.52,-34.48,-54.34,97,6.35,0,1572577766
Gaya,IN,71.6,71.6,24.8,85.01,88,4.92,40,1572577814
Bafata,GW,71.73,71.73,12.17,-14.67,59,2.57,0,1572577814
Stokmarknes,NO,36,36,68.56,14.91,74,8.01,100,1572577814
Leua,AO,65.55,65.55,-11.65,20.45,75,4.18,0,1572577814
Haines Junction,CA,25.56,25.56,60.75,-137.51,96,9.75,100,1572577815
Bukachacha,RU,28.63,28.63,52.99,116.91,70,3.58,93,1572577815
Atar,MR,74.44,74.44,20.52,-13.05,19,10.11,0,1572577815
Bara,NG,72.77,72.77,10.41,10.6,66,2.68,18,1572577815
Nikolayevsk-na-amure,RU,36.57,36.57,53.14,140.72,96,9.86,100,1572577815
Valle Hermoso,MX,53.01,55.4,25.67,-97.82,37,8.05,90,1572577815
Wagrowiec,PL,26.8,28,52.81,17.2,100,2.24,90,1572577816
Cairns,AU,84.11,87.01,-16.92,145.77,48,10.29,75,1572577637
Faanui,PF,78.64,78.64,-16.48,-151.75,87,14.32,0,1572577816
Tilichiki,RU,29.5,29.5,60.47,166.1,90,5.28,93,1572577816
Najran,SA,60.8,60.8,17.54,44.22,31,1.92,17,1572577604
Hilsa,IN,75.2,75.2,25.32,85.28,100,2.24,40,1572577816
Acajutla,SV,83.62,83.62,13.59,-89.83,70,3.89,20,1572577817
Gaozhou,CN,76.84,76.84,21.91,110.85,57,4.09,100,1572577817
Dauphin,CA,32,32,51.15,-100.04,89,9.17,90,1572577817
Merrill,US,39.09,43,42.03,-121.6,38,4.7,1,1572577817
Liuzhou,CN,73.92,73.92,24.32,109.41,48,4.61,90,1572577817
Gizo,IL,61.72,66,31.8,34.94,82,2.24,20,1572577818
Matadi,CD,71.64,71.64,-5.83,13.46,94,1.61,92,1572577818
Pacific Grove,US,56.57,63,36.62,-121.92,26,6.93,1,1572577818
Cap-aux-Meules,CA,55.4,55.4,47.38,-61.86,100,20.8,90,1572577818
Dukat,AL,60.01,60.01,40.25,19.57,94,4.32,54,1572577818
Yumen,CN,51.53,51.53,40.29,97.04,18,5.1,0,1572577818
Marzuq,YE,62.89,62.89,14.4,46.47,25,1.07,77,1572577819
Bam,IR,64.62,64.62,29.11,58.36,37,2.24,0,1572577625
Leshukonskoye,RU,17.56,17.56,64.9,45.76,96,4.18,64,1572577819
Vila Velha,BR,79.83,80.6,-3.71,-38.6,74,14.99,20,1572577819
Maromitsa,RU,8.91,8.91,59.87,48.01,96,3.78,29,1572577819
Waitati,NZ,57.99,57.99,-45.75,170.57,58,21,100,1572577819
Muli,CN,66.36,66.36,28.08,109.56,49,5.08,37,1572577820
El Coyote,MX,49.14,49.14,24.99,-99.52,38,2.66,59,1572577820
Avera,US,48.51,52,33.19,-82.53,57,11.41,1,1572577820
Hearst,CA,23.99,23.99,49.69,-83.67,67,6.38,32,1572577820
Talaya,RU,34.29,35.01,55.79,84.89,100,4.47,90,1572577820
Pontes e Lacerda,BR,71.85,71.85,-15.23,-59.33,97,3.56,100,1572577821
Saint-Pierre,FR,50.47,53.6,48.95,4.24,100,8.05,90,1572577821
Boromo,BF,76.5,76.5,11.74,-2.93,77,4.16,100,1572577821
Manzanillo,MX,82.4,82.4,19.05,-104.32,78,5.37,40,1572577746
Bintulu,MY,86,86,3.17,113.03,74,4.7,75,1572577821
Shelburne,CA,43.16,46.4,44.08,-80.2,93,12.75,90,1572577821
Nacozari,MX,74.26,75.99,25.34,-108.26,67,8.01,100,1572577822
Tessalit,ML,73.04,73.04,20.2,1.01,18,9.06,0,1572577822
Gorele,TR,59,59,41.03,39,87,5.82,75,1572577822
Albolote,ES,59.27,63,37.23,-3.66,93,8.19,75,1572577822
Nouakchott,MR,73.4,73.4,18.08,-15.98,23,8.05,0,1572577822
Katsuura,JP,70.61,73.99,33.93,134.5,60,13.87,20,1572577822
Iqaluit,CA,21.11,21.2,63.75,-68.52,85,5.82,75,1572577726
Verkhnyaya Inta,RU,14.07,14.07,65.99,60.32,96,4.27,100,1572577823
Sobolevo,RU,27.3,27.3,54.43,31.9,70,11.88,57,1572577823
Carnarvon,ZA,56.48,56.48,-30.97,22.13,23,7.96,42,1572577823
Praya,ID,89.6,89.6,-8.71,116.27,55,10.29,75,1572577823
Berlevag,NO,27.59,27.59,70.86,29.09,82,24,100,1572577824
Vero Beach,US,78.84,81,27.64,-80.4,83,5.82,75,1572577824
Calabozo,VE,74.86,74.86,8.92,-67.43,94,3.6,44,1572577824
Esna,RO,37.11,37.11,45.2,27.57,56,6.51,23,1572577824
Chapais,CA,30.2,30.2,49.78,-74.86,92,6.93,90,1572577824
Bambanglipuro,ID,85.21,85.21,-7.95,110.28,57,10.71,96,1572577824
Mochalishche,RU,19.4,19.4,56.33,48.35,79,8.95,75,1572577825
Trairi,BR,73.98,73.98,-3.28,-39.27,84,6.64,25,1572577825
Mayo,CA,23,23,63.59,-135.9,92,2.24,90,1572577825
Awjilah,LY,64.6,64.6,29.14,21.3,45,6.73,0,1572577825
Vardo,US,52.5,55.99,39.62,-77.74,57,27.51,90,1572577825
Chumikan,RU,34.12,34.12,54.72,135.31,61,13.94,96,1572577826
Lincoln,GB,44.22,46.4,53.23,-0.54,93,11.41,100,1572577826
Gravelbourg,CA,32.43,32.43,49.88,-106.56,96,15.43,97,1572577826
Tsiroanomandidy,MG,73.2,73.2,-18.77,46.05,66,2.57,4,1572577826
Norman Wells,CA,14,14,65.28,-126.83,92,3.36,20,1572577826
Tsabong,BW,66.87,66.87,-26.02,22.4,13,10.51,47,1572577826
Kiruna,SE,12.2,12.2,67.86,20.23,92,10.29,100,1572577827
Itoman,JP,80.02,80.6,26.12,127.67,65,16.11,40,1572577827
Zhangye,CN,53.04,53.04,38.94,100.46,22,2.55,67,1572577827
San Carlos de Bariloche,AR,46.58,48.2,-41.13,-71.31,70,16.11,75,1572577827
Ifakara,TZ,67.42,67.42,-8.13,36.68,69,1.83,21,1572577827
Tagawa,JP,71.02,73,33.64,130.81,60,5.82,20,1572577827
Soyo,AO,76.66,76.66,-6.13,12.37,90,4.9,84,1572577828
Lagoa,PT,66.63,68,37.14,-8.45,93,8.05,20,1572577828
Sayat,TM,55.4,55.4,38.78,63.88,71,6.93,75,1572577828
Volnovakha,UA,25.5,25.5,47.6,37.5,60,5.32,0,1572577828
Witu,KE,77,77,-2.39,40.44,94,10.69,1,1572577828
Cheyenne,US,29.53,33.8,41.14,-104.82,74,12.26,40,1572577733
Lovozero,RU,3.27,3.27,68.01,35.02,100,0.54,2,1572577829
Mount Gambier,AU,78.8,78.8,-37.83,140.78,47,5.82,99,1572577829
Caucaia,BR,79.86,80.6,-3.73,-38.66,74,14.99,20,1572577829
Tirlyanskiy,RU,15.75,15.75,54.22,58.58,86,10.92,100,1572577829
Ambon,FR,60.96,62.01,47.55,-2.56,100,16.11,90,1572577829
Pelym,RU,19.35,19.35,61.01,62,80,11.48,100,1572577830
Port Keats,AU,90.01,90.01,-14.25,129.55,51,12.12,80,1572577830
Candolim,IN,77,77,15.52,73.76,88,17.22,75,1572577830
Baiyin,CN,41,41,36.55,104.13,75,4.47,3,1572577830
Nainpur,IN,72.91,72.91,22.43,80.11,73,3.18,95,1572577830
Coffs Harbour,AU,76.87,78.01,-30.3,153.13,64,19.46,40,1572577830
Kastamonu,TR,46.67,46.67,41.38,33.78,89,7.38,100,1572577831
Oshnaviyeh,IR,35.6,35.6,37.04,45.1,93,4.7,0,1572577831
Xuanhua,CN,53.4,53.4,40.61,115.04,34,8.34,100,1572577831
Songkhla,TH,80.6,80.6,7.2,100.6,88,6.93,75,1572577831
Henties Bay,NA,60.76,60.76,-22.12,14.28,74,11.39,99,1572577831
Louis Trichardt,ZA,58.57,58.57,-23.04,29.91,96,8.08,75,1572577832
Zavetnoye,RU,28.11,28.11,47.12,43.89,66,4.14,24,1572577832
Anadyr,RU,15.39,15.8,64.73,177.51,85,6.71,73,1572577832
Hobyo,SO,80.2,80.2,5.35,48.53,77,5.32,42,1572577832
Yunyang,CN,59,59,32.84,110.81,15,5.73,100,1572577832
Petropavlovsk-Kamchatskiy,RU,42.8,42.8,53.05,158.65,87,11.18,90,1572577833
Destin,US,43.66,46.4,30.39,-86.5,70,17.22,20,1572577833
Malanje,AO,62.82,62.82,-9.54,16.35,97,1.81,2,1572577833
Benito Juarez,CU,73.4,73.4,22.29,-79.63,88,1.12,20,1572577833
Nurota,UZ,53.6,53.6,40.56,65.69,71,4.7,100,1572577833
Constantine,DZ,57.2,57.2,36.36,6.61,93,4.7,75,1572577833
Lompoc,US,52.54,57.2,34.64,-120.46,32,7.47,1,1572577834
Cedar City,US,28.65,33.8,37.68,-113.06,20,5.82,1,1572577834
Codrington,AU,78.62,82.4,-28.95,153.24,42,10.29,75,1572577834
Toamasina,MG,69.8,69.8,-18.17,49.38,94,10.89,20,1572577834
Gouvieux,FR,50.11,52,49.19,2.42,93,4.7,75,1572577834
Banda Aceh,ID,82.99,82.99,5.56,95.32,66,2.39,92,1572577834
Tazmalt,DZ,68,68,36.39,4.4,64,11.41,75,1572577835
Naryan-Mar,RU,13.87,13.87,67.67,53.09,93,6.85,87,1572577835
Hirara,JP,78.8,78.8,24.8,125.28,74,16.11,75,1572577835
Teknaf,BD,82.51,82.51,20.86,92.31,65,2.24,9,1572577835
Javornik,BA,42.8,42.8,44.18,18.36,93,4.7,90,1572577835
Masvingo,ZW,67.05,67.05,-20.08,30.83,87,10.16,100,1572577835
La Romana,DO,77.45,80.6,18.43,-68.97,100,7.7,40,1572577836
Paraiso,BR,82.4,82.4,-0.03,-51.17,94,6.93,20,1572577836
La Asuncion,AR,59.25,59.25,-26.05,-65.39,79,6.26,33,1572577836
Te Anau,NZ,52.03,52.03,-45.41,167.72,77,4.97,84,1572577836
Jawhar,IN,76.78,76.78,19.91,73.23,82,3.44,100,1572577836
Gat,SN,77,77,14.69,-16.54,44,10.29,0,1572577837
Lethbridge,CA,32.27,34,49.69,-112.85,82,13.87,75,1572577837
Sao Joao da Barra,BR,74.59,74.59,-21.64,-41.05,92,11.27,64,1572577837
Erzin,TR,59.79,63,36.95,36.2,100,2.24,40,1572577837
Znamenskoye,RU,36.5,36.5,57.13,73.82,83,11.7,100,1572577837
Faya,SA,56.1,57.2,18.39,42.45,76,4.7,11,1572577837
Harrisburg,US,55.24,57.99,40.27,-76.89,67,20.8,90,1572577822
Inhambane,MZ,72.37,72.37,-23.87,35.38,75,16.62,7,1572577838
Xuzhou,CN,71.46,71.46,34.27,117.18,30,8.93,100,1572577838
Margate,AU,87.15,88,-43.03,147.26,23,18.34,100,1572577838
Nandurbar,IN,80.22,80.22,21.36,74.24,71,13.85,46,1572577838
Lafiagi,NG,75.02,75.02,8.85,5.42,82,0.85,0,1572577839
Richards Bay,ZA,68.2,68.2,-28.77,32.06,82,11.61,100,1572577839
Nizhniy Kuranakh,RU,9.34,9.34,58.84,125.49,84,5.37,98,1572577839
Ivolginsk,RU,26.6,26.6,51.75,107.28,79,2.24,19,1572577839
Ziarat,PK,51.48,51.48,30.38,67.73,60,4.56,76,1572577839
Atasu,KZ,45.95,45.95,48.68,71.64,72,13.91,96,1572577839
La Ronge,CA,30.2,30.2,55.1,-105.3,86,9.17,90,1572577840
Tucupita,VE,74.35,74.35,9.06,-62.05,93,2.37,15,1572577840
Pozo Colorado,PY,80.55,80.55,-23.49,-58.8,75,6.85,48,1572577840
Uyuni,BO,54.34,54.34,-20.46,-66.82,33,6.73,0,1572577840
Fairbanks,US,20.25,24.01,64.84,-147.72,85,3.44,1,1572577686
Villa Maria,CO,65.05,73.4,4.5,-74.09,81,5.82,40,1572577840
Amapa,HN,78.8,78.8,15.09,-87.97,88,0.85,75,1572577841
Crotone,IT,62.04,62.04,39.09,17.12,72,4.5,66,1572577841
Panzhihua,CN,70,70,26.59,101.72,54,0.6,37,1572577841
Coihueco,CL,54.25,55,-36.63,-71.83,81,2.24,100,1572577841
Mana,NG,78.66,78.66,13.03,5.27,27,3.62,59,1572577841
Gull Lake,CA,32,32,50.1,-108.48,94,17.22,90,1572577841
Jingdezhen,CN,79.93,79.93,29.29,117.2,26,2.01,56,1572577842
Bathsheba,BB,80.6,80.6,13.22,-59.52,78,16.11,20,1572577842
Mount Isa,AU,96.8,96.8,-20.73,139.49,12,10.29,58,1572577842
Ovre Ardal,NO,21.22,21.22,61.32,7.8,98,2.46,100,1572577842
San Cristobal,HN,65.41,65.41,14.68,-86.92,91,3.36,89,1572577842
Mayumba,GA,77.63,77.63,-3.44,10.65,83,1.95,94,1572577843
Ayan,IR,36.66,36.66,38.23,44.7,83,5.77,0,1572577843
Yarega,RU,19.99,19.99,63.43,53.58,93,3.13,94,1572577843
Comodoro Rivadavia,AR,60.8,60.8,-45.87,-67.48,41,9.17,3,1572577843
Laurel,US,55.99,66,39.1,-76.85,87,21.92,90,1572577682
Zheleznodorozhnyy,RU,27.23,28.4,55.75,38,74,8.95,99,1572577843
Tres Arroyos,AR,56.17,56.17,-38.38,-60.28,55,14.94,100,1572577844
Ovsyanka,RU,22.51,22.51,53.58,126.91,59,10.83,0,1572577844
Nanakuli,US,80.06,82,21.39,-158.15,78,3.36,75,1572577844
Kosonsoy,UZ,51.8,51.8,41.25,71.55,66,4.7,100,1572577844
Linfen,CN,68.04,68.04,36.09,111.52,21,4.56,100,1572577844
Kandrian,PG,84.13,84.13,-6.21,149.55,75,8.46,100,1572577845
Killin,US,36.72,37.4,33.61,-91.74,74,3.36,1,1572577845
Tarnobrzeg,PL,23.47,25,50.57,21.68,100,1.12,0,1572577845
Naron,ES,65.28,68,43.52,-8.15,88,9.17,75,1572577845
Kudahuvadhoo,MV,82.17,82.17,2.67,72.89,73,5.35,91,1572577845
Golfito,CR,74.43,74.43,8.64,-83.17,94,1.23,100,1572577845
Grindavik,IS,35.6,35.6,63.84,-22.43,78,3.36,75,1572577846
Kodiak,US,30.2,30.99,39.95,-94.76,68,5.82,1,1572577846
Gawler,AU,78.64,84,-34.6,138.75,47,20.8,100,1572577846
Kaffrine,SN,76.8,76.8,14.1,-15.55,26,3.15,0,1572577846
Dymytrove,UA,23.65,23.65,48.26,37.05,67,3.58,0,1572577846
Haverfordwest,GB,53.78,54,51.8,-4.97,100,12.75,100,1572577846
Leh,IN,28.22,28.22,34.16,77.58,36,2.37,6,1572577847
Suez,EG,65.3,65.3,29.97,32.54,74,8.75,10,1572577847
Joao Pinheiro,BR,74.93,74.93,-17.74,-46.17,58,5.95,0,1572577847
Diego de Almagro,CL,52.86,52.86,-26.39,-70.05,58,2.91,68,1572577847
Bilma,NE,74.86,74.86,18.69,12.92,16,6.87,0,1572577847
Dzaoudzi,YT,80.6,80.6,-12.79,45.27,88,11.41,75,1572577848
Ruteng,ID,85.51,85.51,-8.61,120.46,43,6.87,64,1572577848
Quatre Cocos,MU,72.68,73.99,-20.21,57.76,83,3.36,20,1572577848
Mpika,ZM,62.87,62.87,-11.84,31.4,46,3.65,0,1572577848
Mokhotlong,LS,31.14,31.14,-29.29,29.06,88,2.84,0,1572577848
Severo-Yeniseyskiy,RU,13.03,13.03,60.37,93.04,82,4.25,100,1572577848
Nome,US,43.23,46.99,30.04,-94.42,81,7.65,1,1572577849
Swift Current,CA,32,32,50.29,-107.8,96,17.22,90,1572577849
Muisne,EC,74.86,74.86,0.61,-80.02,88,8.46,100,1572577849
Tocopilla,CL,52.27,52.27,-22.09,-70.2,23,4.34,0,1572577849
Pangnirtung,CA,22.32,22.32,66.15,-65.72,78,4.34,43,1572577849
Puerto del Rosario,ES,73.4,73.4,28.5,-13.86,83,24.16,75,1572577761
Tecoanapa,MX,82.4,82.4,16.99,-99.26,83,5.82,90,1572577850
Surt,LY,65.79,65.79,31.21,16.59,84,9.1,0,1572577850
Dhing,IN,75.16,75.16,26.46,92.48,80,7.02,9,1572577850
Gerash,IR,59,59,27.67,54.14,82,4.03,0,1572577850
Bloemfontein,ZA,48.2,48.2,-29.12,26.22,90,2.24,87,1572577850
Tabuk,PH,81.75,81.75,17.41,121.44,81,7.54,93,1572577851
Namtsy,RU,15.8,15.8,62.72,129.66,78,6.71,20,1572577851
Polewali,ID,96.75,96.75,-4.03,119.8,38,6.51,19,1572577851
Bosaso,SO,83.89,83.89,11.28,49.18,60,4.14,11,1572577851
Sabha,LY,65.59,65.59,27.03,14.43,51,6.58,0,1572577851
La Union,GT,73,73,14.97,-89.29,1,3.24,54,1572577851
Yangshe,CN,75.42,77,31.89,120.61,43,1.01,35,1572577852
Parksville,US,49.3,52,33.79,-82.22,57,11.41,1,1572577852
Sioux Lookout,CA,27.7,28.4,50.1,-91.92,73,6.93,90,1572577852
Kavieng,PG,85.33,85.33,-2.57,150.8,70,9.17,32,1572577852
Piranshahr,IR,34.63,34.63,36.7,45.14,95,1.97,2,1572577625
Lentekhi,GE,30.99,30.99,42.79,42.72,99,2.13,100,1572577625
Taonan,CN,44.65,44.65,45.34,122.78,20,6.67,0,1572577853
Rio Grande,BR,64.99,64.99,-32.03,-52.1,81,4,0,1572577817
Dingle,PH,84.45,84.45,11,122.67,73,9.71,81,1572577853
Necochea,AR,50,50,-38.55,-58.74,88,8.01,100,1572577853
Selty,RU,19.98,19.98,57.31,52.14,73,7.11,21,1572577853
Namatanai,PG,87.55,87.55,-3.66,152.44,65,8.39,74,1572577853
Mago,RU,38.28,38.28,53.27,140.15,92,11.16,100,1572577854
Huejuquilla el Alto,MX,64.8,64.8,22.63,-103.9,64,5.26,100,1572577854
Ust-Uda,RU,36.48,36.48,54.17,103.03,86,4.56,100,1572577854
Sorland,NO,38.14,38.14,67.67,12.69,73,9.93,100,1572577854
San Luis,AR,70.32,70.32,-33.3,-66.34,40,10.69,0,1572577854
Muborak,UZ,56.43,56.43,39.25,65.15,60,17.58,100,1572577854
Kolobovo,RU,23.74,23.74,56.71,41.34,80,10.4,100,1572577855
Angoche,MZ,78.73,78.73,-16.23,39.91,80,8.08,86,1572577855
Ostuni,IT,59.22,62.01,40.73,17.58,87,4.7,96,1572577855
Pangoa,PE,70.03,70.03,-12.12,-73,92,2.86,57,1572577855
Aksarka,RU,3.74,3.74,66.56,67.8,93,4.05,0,1572577855
Saint-Francois,FR,52.63,53.6,46.42,3.91,87,3.36,90,1572577856
Itarema,BR,73.78,73.78,-2.92,-39.92,86,5.17,2,1572577856
Nuevo Progreso,US,54.97,59,26.05,-97.95,35,5.82,90,1572577856
Khoy,IR,48.42,48.42,38.55,44.95,64,1.14,0,1572577856
Camrose,CA,31.64,34,53.01,-112.84,80,5.82,20,1572577856
Caravelas,BR,70.59,70.59,-17.73,-39.27,95,5.59,25,1572577856
Cidreira,BR,68.11,68.11,-30.17,-50.22,83,20.92,100,1572577857
Wilmington,US,71.44,77,39.75,-75.55,88,9.17,90,1572577841
Sisimiut,GL,25.88,25.88,66.94,-53.67,63,6.08,100,1572577857
Almaznyy,RU,21.2,21.2,48.03,40.04,79,2.24,0,1572577857
Rosario do Sul,BR,63.14,63.14,-30.26,-54.91,80,13.4,79,1572577857
Sayanogorsk,RU,43.45,43.45,53.09,91.41,76,6.42,100,1572577858
Beidao,CN,47.12,47.12,34.57,105.89,87,2.51,100,1572577858
Road Town,VG,80.6,82.4,18.42,-64.62,74,8.05,40,1572577829
Teguise,ES,73.4,73.4,29.06,-13.56,78,25.28,0,1572577858
Burnie,AU,75.52,78.01,-41.05,145.91,52,8.01,100,1572577858
Buzmeyin,TM,50,50,38.05,58.21,87,2.24,20,1572577858
Mmabatho,ZA,69.8,69.8,-25.85,25.61,60,8.05,0,1572577859
Strezhevoy,RU,21.2,21.2,60.73,77.6,92,17.9,90,1572577859
Holbaek,DK,38.12,43,55.72,11.72,93,1.12,38,1572577859
Kyshtovka,RU,38.41,38.41,56.56,76.62,94,13.71,96,1572577859
Alikalia,SL,68.85,68.85,9.15,-11.39,91,1.5,100,1572577859
Brewster,US,66.49,69.8,41.76,-70.08,88,13.87,90,1572577859
Tabas,IR,53.6,53.6,33.6,56.92,62,2.24,42,1572577860
Praia,BR,71.6,71.6,-20.25,-43.81,73,2.59,85,1572577860
Alofi,NU,77,77,-19.06,-169.92,61,11.41,100,1572577626
